{"type": "FeatureCollection", "features": [{"type": "Feature", "geometry": {"type": "Point", "coordinates": [49.375, 14.66259956]}, "properties": {"id": 3974, "name": "Mukalla International Airport", "city": "Mukalla", "country": "Yemen", "three_code": "RIY", "four_code": "OYRN", "lat": 14.66259956, "lon": 49.375, "elevation": "54", "gmt": "3", "tz_short": "U", "time_zone": "Asia/Aden", "type": "airport"}}, {"type": "Feature", "geometry": {"type": "Point", "coordinates": [44.13909912, 13.68599987]}, "properties": {"id": 3975, "name": "Ta'izz International Airport", "city": "Taiz", "country": "Yemen", "three_code": "TAI", "four_code": "OYTZ", "lat": 13.68599987, "lon": 44.13909912, "elevation": "4838", "gmt": "3", "tz_short": "U", "time_zone": "Asia/Aden", "type": "airport"}}, {"type": "Feature", "geometry": {"type": "Point", "coordinates": [42.97629929, 14.75300026]}, "properties": {"id": 3976, "name": "Hodeidah International Airport", "city": "Hodeidah", "country": "Yemen", "three_code": "HOD", "four_code": "OYHD", "lat": 14.75300026, "lon": 42.97629929, "elevation": "41", "gmt": "3", "tz_short": "U", "time_zone": "Asia/Aden", "type": "airport"}}, {"type": "Feature", "geometry": {"type": "Point", "coordinates": [45.02880096, 12.8295002]}, "properties": {"id": 3977, "name": "Aden International Airport", "city": "Aden", "country": "Yemen", "three_code": "ADE", "four_code": "OYAA", "lat": 12.8295002, "lon": 45.02880096, "elevation": "7", "gmt": "3", "tz_short": "U", "time_zone": "Asia/Aden", "type": "airport"}}, {"type": "Feature", "geometry": {"type": "Point", "coordinates": [46.82619858, 14.55130005]}, "properties": {"id": 3978, "name": "Ataq Airport", "city": "Ataq", "country": "Yemen", "three_code": "AXK", "four_code": "OYAT", "lat": 14.55130005, "lon": 46.82619858, "elevation": "3735", "gmt": "3", "tz_short": "U", "time_zone": "Asia/Aden", "type": "airport"}}, {"type": "Feature", "geometry": {"type": "Point", "coordinates": [52.17499924, 16.19169998]}, "properties": {"id": 3979, "name": "Al Ghaidah International Airport", "city": "Al Ghaidah Intl", "country": "Yemen", "three_code": "AAY", "four_code": "OYGD", "lat": 16.19169998, "lon": 52.17499924, "elevation": "134", "gmt": "3", "tz_short": "U", "time_zone": "Asia/Aden", "type": "airport"}}, {"type": "Feature", "geometry": {"type": "Point", "coordinates": [44.21969986, 15.47630024]}, "properties": {"id": 3980, "name": "Sana'a International Airport", "city": "Sanaa", "country": "Yemen", "three_code": "SAH", "four_code": "OYSN", "lat": 15.47630024, "lon": 44.21969986, "elevation": "7216", "gmt": "3", "tz_short": "U", "time_zone": "Asia/Aden", "type": "airport"}}, {"type": "Feature", "geometry": {"type": "Point", "coordinates": [45.7201004, 14.78199959]}, "properties": {"id": 3982, "name": "Beihan Airport", "city": "Beihan", "country": "Yemen", "three_code": "BHN", "four_code": "OYBN", "lat": 14.78199959, "lon": 45.7201004, "elevation": "3800", "gmt": "3", "tz_short": "U", "time_zone": "Asia/Aden", "type": "airport"}}, {"type": "Feature", "geometry": {"type": "Point", "coordinates": [53.90579987, 12.63070011]}, "properties": {"id": 3984, "name": "Socotra International Airport", "city": "Socotra", "country": "Yemen", "three_code": "SCT", "four_code": "OYSQ", "lat": 12.63070011, "lon": 53.90579987, "elevation": "146", "gmt": "3", "tz_short": "U", "time_zone": "Asia/Aden", "type": "airport"}}, {"type": "Feature", "geometry": {"type": "Point", "coordinates": [50.8368988, 18.71929932]}, "properties": {"id": 3985, "name": "Al Badie Airport", "city": "Al Badie", "country": "Yemen", "three_code": "\\N", "four_code": "OYBA", "lat": 18.71929932, "lon": 50.8368988, "elevation": "908", "gmt": "3", "tz_short": "U", "time_zone": "Asia/Aden", "type": "airport"}}, {"type": "Feature", "geometry": {"type": "Point", "coordinates": [48.78829956, 15.96609974]}, "properties": {"id": 5954, "name": "Sayun International Airport", "city": "Sayun Intl", "country": "Yemen", "three_code": "GXF", "four_code": "OYSY", "lat": 15.96609974, "lon": 48.78829956, "elevation": "2097", "gmt": "3", "tz_short": "U", "time_zone": "Asia/Aden", "type": "airport"}}]}